{
  "citiesFrom" : [
    {
      "countryTitle" : "Австрия",
      "point" : {
        "longitude" : 16.36879539489746,
        "latitude" : 48.20253753662109
      },
      "districtTitle" : "",
      "cityId" : 2352,
      "cityTitle" : "Вена",
      "regionTitle" : "",
      "stations" : [
        {
          "countryTitle" : "Австрия",
          "point" : {
            "longitude" : 16.36879539489746,
            "latitude" : 48.20253753662109
          },
          "districtTitle" : "",
          "cityId" : 2352,
          "cityTitle" : "город Вена",
          "regionTitle" : "",
          "stationId" : 10154,
          "stationTitle" : "International Busterminal, Edbergstarsse 200 A"
        },
        {
          "countryTitle" : "Австрия",
          "point" : {
            "longitude" : 16.36879539489746,
            "latitude" : 48.20253753662109
          },
          "districtTitle" : "",
          "cityId" : 2352,
          "cityTitle" : "город Вена",
          "regionTitle" : "",
          "stationId" : 9864,
          "stationTitle" : "Stadion Center, Engerthstr. 242"
        },
        {
          "countryTitle" : "Австрия",
          "point" : {
            "longitude" : 16.36879539489746,
            "latitude" : 48.20253753662109
          },
          "districtTitle" : "",
          "cityId" : 2352,
          "cityTitle" : "город Вена",
          "regionTitle" : "",
          "stationId" : 9778,
          "stationTitle" : "Stadion Center, Olympiaplatz 2"
        },
        {
          "countryTitle" : "Австрия",
          "point" : {
            "longitude" : 16.36879539489746,
            "latitude" : 48.20253753662109
          },
          "districtTitle" : "",
          "cityId" : 2352,
          "cityTitle" : "город Вена",
          "regionTitle" : "",
          "stationId" : 434,
          "stationTitle" : "U-BHF ERDBERGSTR."
        },
        {
          "countryTitle" : "Австрия",
          "point" : {
            "longitude" : 16.36879539489746,
            "latitude" : 48.20253753662109
          },
          "districtTitle" : "",
          "cityId" : 2352,
          "cityTitle" : "город Вена",
          "regionTitle" : "",
          "stationId" : 874,
          "stationTitle" : "Vienna"
        }
      ]
    },
    {
      "countryTitle" : "Австрия",
      "point" : {
        "longitude" : 13.04336738586426,
        "latitude" : 47.80066680908203
      },
      "districtTitle" : "",
      "cityId" : 13080,
      "cityTitle" : "Зальцбург",
      "regionTitle" : "",
      "stations" : [
        {
          "countryTitle" : "Австрия",
          "point" : {
            "longitude" : 13.04336738586426,
            "latitude" : 47.80066680908203
          },
          "districtTitle" : "",
          "cityId" : 13080,
          "cityTitle" : "город Зальцбург",
          "regionTitle" : "",
          "stationId" : 10234,
          "stationTitle" : "P+R Süd"
        }
      ]
    },
    {
      "countryTitle" : "Австрия",
      "point" : {
        "longitude" : 14.28811836242676,
        "latitude" : 48.30422973632812
      },
      "districtTitle" : "",
      "cityId" : 18008,
      "cityTitle" : "Линц",
      "regionTitle" : "Верхняя Австрия",
      "stations" : [
        {
          "countryTitle" : "Австрия",
          "point" : {
            "longitude" : 14.28811836242676,
            "latitude" : 48.30422973632812
          },
          "districtTitle" : "",
          "cityId" : 18008,
          "cityTitle" : "город Линц",
          "regionTitle" : "Верхняя Австрия",
          "stationId" : 10252,
          "stationTitle" : "Industriezeile vis a vis von Haus 84"
        }
      ]
    },
    {
      "countryTitle" : "Армения",
      "point" : {
        "longitude" : 44.87189102172852,
        "latitude" : 40.74198150634766
      },
      "districtTitle" : "",
      "cityId" : 1046,
      "cityTitle" : "Дилижан",
      "regionTitle" : "",
      "stations" : [
        {
          "countryTitle" : "Армения",
          "point" : {
            "longitude" : 44.87189102172852,
            "latitude" : 40.74198150634766
          },
          "districtTitle" : "",
          "cityId" : 1046,
          "cityTitle" : "город Дилижан",
          "regionTitle" : "",
          "stationId" : 203,
          "stationTitle" : "Трасса"
        }
      ]
    },
    {
      "countryTitle" : "Армения",
      "point" : {
        "longitude" : 44.51259231567383,
        "latitude" : 40.17760848999023
      },
      "districtTitle" : "",
      "cityId" : 293,
      "cityTitle" : "Ереван",
      "regionTitle" : "",
      "stations" : [
        {
          "countryTitle" : "Армения",
          "point" : {
            "longitude" : 44.51259231567383,
            "latitude" : 40.17760848999023
          },
          "districtTitle" : "",
          "cityId" : 293,
          "cityTitle" : "город Ереван",
          "regionTitle" : "",
          "stationId" : 58,
          "stationTitle" : "ул. Севани 93\/1, Автостанция"
        }
      ]
    },
    {
      "countryTitle" : "Армения",
      "point" : {
        "longitude" : 45.14980316162109,
        "latitude" : 40.88218688964844
      },
      "districtTitle" : "",
      "cityId" : 1044,
      "cityTitle" : "Иджеван",
      "regionTitle" : "",
      "stations" : [
        {
          "countryTitle" : "Армения",
          "point" : {
            "longitude" : 45.14980316162109,
            "latitude" : 40.88218688964844
          },
          "districtTitle" : "",
          "cityId" : 1044,
          "cityTitle" : "город Иджеван",
          "regionTitle" : "",
          "stationId" : 205,
          "stationTitle" : "Трасса"
        }
      ]
    },
    {
      "countryTitle" : "Армения",
      "point" : {
        "longitude" : 44.99687576293945,
        "latitude" : 41.17173767089844
      },
      "districtTitle" : "",
      "cityId" : 1138,
      "cityTitle" : "Ноемберян",
      "regionTitle" : "",
      "stations" : [
        {
          "countryTitle" : "Армения",
          "point" : {
            "longitude" : 44.99687576293945,
            "latitude" : 41.17173767089844
          },
          "districtTitle" : "",
          "cityId" : 1138,
          "cityTitle" : "город Ноемберян",
          "regionTitle" : "",
          "stationId" : 218,
          "stationTitle" : "Трасса"
        }
      ]
    },
    {
      "countryTitle" : "Армения",
      "point" : {
        "longitude" : 44.75934982299805,
        "latitude" : 40.51569366455078
      },
      "districtTitle" : "",
      "cityId" : 1054,
      "cityTitle" : "Раздан",
      "regionTitle" : "",
      "stations" : [
        {
          "countryTitle" : "Армения",
          "point" : {
            "longitude" : 44.75934982299805,
            "latitude" : 40.51569366455078
          },
          "districtTitle" : "",
          "cityId" : 1054,
          "cityTitle" : "город Раздан",
          "regionTitle" : "",
          "stationId" : 199,
          "stationTitle" : "Трасса"
        }
      ]
    },
    {
      "countryTitle" : "Армения",
      "point" : {
        "longitude" : 44.96807479858398,
        "latitude" : 40.54730606079102
      },
      "districtTitle" : "",
      "cityId" : 984,
      "cityTitle" : "Севан",
      "regionTitle" : "",
      "stations" : [
        {
          "countryTitle" : "Армения",
          "point" : {
            "longitude" : 44.96807479858398,
            "latitude" : 40.54730606079102
          },
          "districtTitle" : "",
          "cityId" : 984,
          "cityTitle" : "город Севан",
          "regionTitle" : "",
          "stationId" : 201,
          "stationTitle" : "Трасса"
        }
      ]
    },
    {
      "countryTitle" : "Армения",
      "point" : {
        "longitude" : 44.64622497558594,
        "latitude" : 40.40020751953125
      },
      "districtTitle" : "",
      "cityId" : 1136,
      "cityTitle" : "Чаренцаван",
      "regionTitle" : "",
      "stations" : [
        {
          "countryTitle" : "Армения",
          "point" : {
            "longitude" : 44.64622497558594,
            "latitude" : 40.40020751953125
          },
          "districtTitle" : "",
          "cityId" : 1136,
          "cityTitle" : "город Чаренцаван",
          "regionTitle" : "",
          "stationId" : 216,
          "stationTitle" : "Трасса"
        }
      ]
    },
    {
      "countryTitle" : "Армения",
      "point" : {
        "longitude" : 44.82614898681641,
        "latitude" : 41.24104309082031
      },
      "districtTitle" : "",
      "cityId" : 1042,
      "cityTitle" : "село Баграташен",
      "regionTitle" : "",
      "stations" : [
        {
          "countryTitle" : "Армения",
          "point" : {
            "longitude" : 44.82614898681641,
            "latitude" : 41.24104309082031
          },
          "districtTitle" : "",
          "cityId" : 1042,
          "cityTitle" : "село Баграташен",
          "regionTitle" : "",
          "stationId" : 207,
          "stationTitle" : "КПП на границе"
        }
      ]
    },
    {
      "countryTitle" : "Беларусь",
      "point" : {
        "longitude" : 26.01651382446289,
        "latitude" : 53.13211822509766
      },
      "districtTitle" : "",
      "cityId" : 4636,
      "cityTitle" : "Барановичи",
      "regionTitle" : "Брестская область",
      "stations" : [
        {
          "countryTitle" : "Беларусь",
          "point" : {
            "longitude" : 26.01651382446289,
            "latitude" : 53.13211822509766
          },
          "districtTitle" : "",
          "cityId" : 4636,
          "cityTitle" : "город Барановичи",
          "regionTitle" : "Брестская область",
          "stationId" : 9510,
          "stationTitle" : "Автовокзал ул. Фроленкова,"
        }
      ]
    },
    {
      "countryTitle" : "Беларусь",
      "point" : {
        "longitude" : 23.71202087402344,
        "latitude" : 52.08951187133789
      },
      "districtTitle" : "",
      "cityId" : 2404,
      "cityTitle" : "Брест",
      "regionTitle" : "Брестская область",
      "stations" : [
        {
          "countryTitle" : "Беларусь",
          "point" : {
            "longitude" : 23.71202087402344,
            "latitude" : 52.08951187133789
          },
          "districtTitle" : "",
          "cityId" : 2404,
          "cityTitle" : "город Брест",
          "regionTitle" : "Брестская область",
          "stationId" : 438,
          "stationTitle" : "CENTRALNY A\/V"
        },
        {
          "countryTitle" : "Беларусь",
          "point" : {
            "longitude" : 23.71202087402344,
            "latitude" : 52.08951187133789
          },
          "districtTitle" : "",
          "cityId" : 2404,
          "cityTitle" : "город Брест",
          "regionTitle" : "Брестская область",
          "stationId" : 579,
          "stationTitle" : "GARE ROUTIERE CENTRALE"
        },
        {
          "countryTitle" : "Беларусь",
          "point" : {
            "longitude" : 23.71202087402344,
            "latitude" : 52.08951187133789
          },
          "districtTitle" : "",
          "cityId" : 2404,
          "cityTitle" : "город Брест",
          "regionTitle" : "Брестская область",
          "stationId" : 511,
          "stationTitle" : "Автовокзал"
        },
        {
          "countryTitle" : "Беларусь",
          "point" : {
            "longitude" : 23.71202087402344,
            "latitude" : 52.08951187133789
          },
          "districtTitle" : "",
          "cityId" : 2404,
          "cityTitle" : "город Брест",
          "regionTitle" : "Брестская область",
          "stationId" : 9596,
          "stationTitle" : "Автовокзал  ул. Мицкевича 35"
        }
      ]
    },
    {
      "countryTitle" : "Беларусь",
      "point" : {
        "longitude" : 30.20633697509766,
        "latitude" : 55.19267272949219
      },
      "districtTitle" : "",
      "cityId" : 2354,
      "cityTitle" : "Витебск",
      "regionTitle" : "Витебская область",
      "stations" : [
        {
          "countryTitle" : "Беларусь",
          "point" : {
            "longitude" : 30.20633697509766,
            "latitude" : 55.19267272949219
          },
          "districtTitle" : "",
          "cityId" : 2354,
          "cityTitle" : "город Витебск",
          "regionTitle" : "Витебская область",
          "stationId" : 791,
          "stationTitle" : "Vitebsk"
        },
        {
          "countryTitle" : "Беларусь",
          "point" : {
            "longitude" : 30.20633697509766,
            "latitude" : 55.19267272949219
          },
          "districtTitle" : "",
          "cityId" : 2354,
          "cityTitle" : "город Витебск",
          "regionTitle" : "Витебская область",
          "stationId" : 10156,
          "stationTitle" : "Автовокзал ул. Космонавтов, 12"
        },
        {
          "countryTitle" : "Беларусь",
          "point" : {
            "longitude" : 30.20633697509766,
            "latitude" : 55.19267272949219
          },
          "districtTitle" : "",
          "cityId" : 2354,
          "cityTitle" : "город Витебск",
          "regionTitle" : "Витебская область",
          "stationId" : 9594,
          "stationTitle" : "Автовокзал, ул. Космонавтов, 14"
        }
      ]
    },
    {
      "countryTitle" : "Беларусь",
      "point" : {
        "longitude" : 31.01427268981934,
        "latitude" : 52.42416000366211
      },
      "districtTitle" : "город областного подчинения Гомель",
      "cityId" : 2794,
      "cityTitle" : "Гомель",
      "regionTitle" : "Гомельская область",
      "stations" : [
        {
          "countryTitle" : "Беларусь",
          "point" : {
            "longitude" : 31.01427268981934,
            "latitude" : 52.42416000366211
          },
          "districtTitle" : "город областного подчинения Гомель",
          "cityId" : 2794,
          "cityTitle" : "город Гомель",
          "regionTitle" : "Гомельская область",
          "stationId" : 10226,
          "stationTitle" : "Автовокзал, пл.16, ул.Курчатова 1"
        },
        {
          "countryTitle" : "Беларусь",
          "point" : {
            "longitude" : 31.01427268981934,
            "latitude" : 52.42416000366211
          },
          "districtTitle" : "город областного подчинения Гомель",
          "cityId" : 2794,
          "cityTitle" : "город Гомель",
          "regionTitle" : "Гомельская область",
          "stationId" : 10228,
          "stationTitle" : "Автовокзал, ул.Курчатова 1"
        }
      ]
    },
    {
      "countryTitle" : "Беларусь",
      "point" : {
        "longitude" : 25.534423828125,
        "latitude" : 52.1464958190918
      },
      "districtTitle" : "",
      "cityId" : 19816,
      "cityTitle" : "Иваново",
      "regionTitle" : "Брестская область",
      "stations" : [
        {
          "countryTitle" : "Беларусь",
          "point" : {
            "longitude" : 25.534423828125,
            "latitude" : 52.1464958190918
          },
          "districtTitle" : "",
          "cityId" : 19816,
          "cityTitle" : "город Иваново",
          "regionTitle" : "Брестская область",
          "stationId" : 10458,
          "stationTitle" : "Иваново"
        }
      ]
    },
    {
      "countryTitle" : "Беларусь",
      "point" : {
        "longitude" : 25.30284690856934,
        "latitude" : 53.89324188232422
      },
      "districtTitle" : "",
      "cityId" : 4640,
      "cityTitle" : "Лида",
      "regionTitle" : "Гродненская область",
      "stations" : [
        {
          "countryTitle" : "Беларусь",
          "point" : {
            "longitude" : 25.30284690856934,
            "latitude" : 53.89324188232422
          },
          "districtTitle" : "",
          "cityId" : 4640,
          "cityTitle" : "город Лида",
          "regionTitle" : "Гродненская область",
          "stationId" : 10162,
          "stationTitle" : "Автовокзал  ул. Чапаева, 1"
        },
        {
          "countryTitle" : "Беларусь",
          "point" : {
            "longitude" : 25.30284690856934,
            "latitude" : 53.89324188232422
          },
          "districtTitle" : "",
          "cityId" : 4640,
          "cityTitle" : "город Лида",
          "regionTitle" : "Гродненская область",
          "stationId" : 9720,
          "stationTitle" : "Автовокзал, пл.5"
        }
      ]
    },
    {
      "countryTitle" : "Беларусь",
      "point" : {
        "longitude" : 27.5549144744873,
        "latitude" : 53.90607833862305
      },
      "districtTitle" : "",
      "cityId" : 879,
      "cityTitle" : "Минск",
      "regionTitle" : "",
      "stations" : [
        {
          "countryTitle" : "Беларусь",
          "point" : {
            "longitude" : 27.5549144744873,
            "latitude" : 53.90607833862305
          },
          "districtTitle" : "",
          "cityId" : 879,
          "cityTitle" : "город Минск",
          "regionTitle" : "",
          "stationId" : 777,
          "stationTitle" : "Minsk"
        },
        {
          "countryTitle" : "Беларусь",
          "point" : {
            "longitude" : 27.5549144744873,
            "latitude" : 53.90607833862305
          },
          "districtTitle" : "",
          "cityId" : 879,
          "cityTitle" : "город Минск",
          "regionTitle" : "",
          "stationId" : 818,
          "stationTitle" : "Minsk (Centralnyj)"
        },
        {
          "countryTitle" : "Беларусь",
          "point" : {
            "longitude" : 27.5549144744873,
            "latitude" : 53.90607833862305
          },
          "districtTitle" : "",
          "cityId" : 879,
          "cityTitle" : "город Минск",
          "regionTitle" : "",
          "stationId" : 810,
          "stationTitle" : "Minsk (Vostočnyj)"
        },
        {
          "countryTitle" : "Беларусь",
          "point" : {
            "longitude" : 27.5549144744873,
            "latitude" : 53.90607833862305
          },
          "districtTitle" : "",
          "cityId" : 879,
          "cityTitle" : "город Минск",
          "regionTitle" : "",
          "stationId" : 411,
          "stationTitle" : "АВ ЦЕНТРАЛЬНЫЙ"
        },
        {
          "countryTitle" : "Беларусь",
          "point" : {
            "longitude" : 27.5549144744873,
            "latitude" : 53.90607833862305
          },
          "districtTitle" : "",
          "cityId" : 879,
          "cityTitle" : "город Минск",
          "regionTitle" : "",
          "stationId" : 9784,
          "stationTitle" : "Автовокзал \"Восточный\", пл.12, ул.Ванеева 34"
        },
        {
          "countryTitle" : "Беларусь",
          "point" : {
            "longitude" : 27.5549144744873,
            "latitude" : 53.90607833862305
          },
          "districtTitle" : "",
          "cityId" : 879,
          "cityTitle" : "город Минск",
          "regionTitle" : "",
          "stationId" : 9518,
          "stationTitle" : "Автовокзал \"Восточный\", ул.Ванеева 34"
        },
        {
          "countryTitle" : "Беларусь",
          "point" : {
            "longitude" : 27.5549144744873,
            "latitude" : 53.90607833862305
          },
          "districtTitle" : "",
          "cityId" : 879,
          "cityTitle" : "город Минск",
          "regionTitle" : "",
          "stationId" : 392,
          "stationTitle" : "Автовокзал Центральный платформа 3,4"
        },
        {
          "countryTitle" : "Беларусь",
          "point" : {
            "longitude" : 27.5549144744873,
            "latitude" : 53.90607833862305
          },
          "districtTitle" : "",
          "cityId" : 879,
          "cityTitle" : "город Минск",
          "regionTitle" : "",
          "stationId" : 10230,
          "stationTitle" : "Центральный автовокзал, пл.3, ул. Бобруйская 6"
        },
        {
          "countryTitle" : "Беларусь",
          "point" : {
            "longitude" : 27.5549144744873,
            "latitude" : 53.90607833862305
          },
          "districtTitle" : "",
          "cityId" : 879,
          "cityTitle" : "город Минск",
          "regionTitle" : "",
          "stationId" : 9644,
          "stationTitle" : "Центральный автовокзал, пл.4, ул. Бобруйская 6"
        },
        {
          "countryTitle" : "Беларусь",
          "point" : {
            "longitude" : 27.5549144744873,
            "latitude" : 53.90607833862305
          },
          "districtTitle" : "",
          "cityId" : 879,
          "cityTitle" : "город Минск",
          "regionTitle" : "",
          "stationId" : 9454,
          "stationTitle" : "Центральный автовокзал, ул. Бобруйская 6"
        }
      ]
    },
    {
      "countryTitle" : "Беларусь",
      "point" : {
        "longitude" : 30.42192268371582,
        "latitude" : 54.50685119628906
      },
      "districtTitle" : "Оршанский район",
      "cityId" : 2482,
      "cityTitle" : "Орша",
      "regionTitle" : "Витебская область",
      "stations" : [
        {
          "countryTitle" : "Беларусь",
          "point" : {
            "longitude" : 30.42192268371582,
            "latitude" : 54.50685119628906
          },
          "districtTitle" : "Оршанский район",
          "cityId" : 2482,
          "cityTitle" : "город Орша",
          "regionTitle" : "Витебская область",
          "stationId" : 10068,
          "stationTitle" : "Автовокзал, ул. Заслонова, рядом с ЖД Вокзалом"
        },
        {
          "countryTitle" : "Беларусь",
          "point" : {
            "longitude" : 30.42192268371582,
            "latitude" : 54.50685119628906
          },
          "districtTitle" : "Оршанский район",
          "cityId" : 2482,
          "cityTitle" : "город Орша",
          "regionTitle" : "Витебская область",
          "stationId" : 10204,
          "stationTitle" : "Автовокзал, ул. Пакгаузная 1"
        },
        {
          "countryTitle" : "Беларусь",
          "point" : {
            "longitude" : 30.42192268371582,
            "latitude" : 54.50685119628906
          },
          "districtTitle" : "Оршанский район",
          "cityId" : 2482,
          "cityTitle" : "город Орша",
          "regionTitle" : "Витебская область",
          "stationId" : 9464,
          "stationTitle" : "Ж\/Д вокзал, ул. Дзержинского"
        },
        {
          "countryTitle" : "Беларусь",
          "point" : {
            "longitude" : 30.42192268371582,
            "latitude" : 54.50685119628906
          },
          "districtTitle" : "Оршанский район",
          "cityId" : 2482,
          "cityTitle" : "город Орша",
          "regionTitle" : "Витебская область",
          "stationId" : 9486,
          "stationTitle" : "Остановочный пункт «Андреевщина»"
        }
      ]
    },
    {
      "countryTitle" : "Бельгия",
      "point" : {
        "longitude" : 4.39767599105835,
        "latitude" : 51.22208404541016
      },
      "districtTitle" : "",
      "cityId" : 2376,
      "cityTitle" : "Антверпен",
      "regionTitle" : "Фландрия",
      "stations" : [
        {
          "countryTitle" : "Бельгия",
          "point" : {
            "longitude" : 4.39767599105835,
            "latitude" : 51.22208404541016
          },
          "districtTitle" : "",
          "cityId" : 2376,
          "cityTitle" : "город Антверпен",
          "regionTitle" : "Фландрия",
          "stationId" : 10166,
          "stationTitle" : "Berchem Railway Station, Borsbeekbrug opposite Post House"
        },
        {
          "countryTitle" : "Бельгия",
          "point" : {
            "longitude" : 4.39767599105835,
            "latitude" : 51.22208404541016
          },
          "districtTitle" : "",
          "cityId" : 2376,
          "cityTitle" : "город Антверпен",
          "regionTitle" : "Фландрия",
          "stationId" : 10114,
          "stationTitle" : "Rue Gerard le Grellelaan, 10  (Hotel Crowne Plaza)"
        },
        {
          "countryTitle" : "Бельгия",
          "point" : {
            "longitude" : 4.39767599105835,
            "latitude" : 51.22208404541016
          },
          "districtTitle" : "",
          "cityId" : 2376,
          "cityTitle" : "город Антверпен",
          "regionTitle" : "Фландрия",
          "stationId" : 444,
          "stationTitle" : "RUE GERARD LE GRELLELAAN, 10 (Hotel Crowne Plaza)"
        },
        {
          "countryTitle" : "Бельгия",
          "point" : {
            "longitude" : 4.39767599105835,
            "latitude" : 51.22208404541016
          },
          "districtTitle" : "",
          "cityId" : 2376,
          "cityTitle" : "город Антверпен",
          "regionTitle" : "Фландрия",
          "stationId" : 10168,
          "stationTitle" : "Van Straalenstraat, 8 Parking bus face au bureau Eurolines"
        },
        {
          "countryTitle" : "Бельгия",
          "point" : {
            "longitude" : 4.39767599105835,
            "latitude" : 51.22208404541016
          },
          "districtTitle" : "",
          "cityId" : 2376,
          "cityTitle" : "город Антверпен",
          "regionTitle" : "Фландрия",
          "stationId" : 9846,
          "stationTitle" : "van Stralenstraat 8"
        }
      ]
    },
    {
      "countryTitle" : "Бельгия",
      "point" : {
        "longitude" : 4.349678993225098,
        "latitude" : 50.84837341308594
      },
      "districtTitle" : "",
      "cityId" : 2402,
      "cityTitle" : "Брюссель",
      "regionTitle" : "",
      "stations" : [
        {
          "countryTitle" : "Бельгия",
          "point" : {
            "longitude" : 4.349678993225098,
            "latitude" : 50.84837341308594
          },
          "districtTitle" : "",
          "cityId" : 2402,
          "cityTitle" : "город Брюссель",
          "regionTitle" : "",
          "stationId" : 10182,
          "stationTitle" : "Central Station, Rue Cardinal Mercierstraat"
        },
        {
          "countryTitle" : "Бельгия",
          "point" : {
            "longitude" : 4.349678993225098,
            "latitude" : 50.84837341308594
          },
          "districtTitle" : "",
          "cityId" : 2402,
          "cityTitle" : "город Брюссель",
          "regionTitle" : "",
          "stationId" : 9878,
          "stationTitle" : "Eurolines, Gare du Nord"
        },
        {
          "countryTitle" : "Бельгия",
          "point" : {
            "longitude" : 4.349678993225098,
            "latitude" : 50.84837341308594
          },
          "districtTitle" : "",
          "cityId" : 2402,
          "cityTitle" : "город Брюссель",
          "regionTitle" : "",
          "stationId" : 461,
          "stationTitle" : "GARE DU MIDI"
        }
      ]
    },
    {
      "countryTitle" : "Болгария",
      "point" : {
        "longitude" : 27.92522621154785,
        "latitude" : 43.20631790161133
      },
      "districtTitle" : "",
      "cityId" : 13298,
      "cityTitle" : "Варна",
      "regionTitle" : "",
      "stations" : [
        {
          "countryTitle" : "Болгария",
          "point" : {
            "longitude" : 27.92522621154785,
            "latitude" : 43.20631790161133
          },
          "districtTitle" : "",
          "cityId" : 13298,
          "cityTitle" : "город Варна",
          "regionTitle" : "",
          "stationId" : 9938,
          "stationTitle" : "Автовокзал пл.9"
        },
        {
          "countryTitle" : "Болгария",
          "point" : {
            "longitude" : 27.92522621154785,
            "latitude" : 43.20631790161133
          },
          "districtTitle" : "",
          "cityId" : 13298,
          "cityTitle" : "город Варна",
          "regionTitle" : "",
          "stationId" : 9988,
          "stationTitle" : "Автовокзал, пл.8, ул.Вл.Варненчик 158"
        },
        {
          "countryTitle" : "Болгария",
          "point" : {
            "longitude" : 27.92522621154785,
            "latitude" : 43.20631790161133
          },
          "districtTitle" : "",
          "cityId" : 13298,
          "cityTitle" : "город Варна",
          "regionTitle" : "",
          "stationId" : 9834,
          "stationTitle" : "Автовокзал, ул.Вл.Варненчик 158"
        },
        {
          "countryTitle" : "Болгария",
          "point" : {
            "longitude" : 27.92522621154785,
            "latitude" : 43.20631790161133
          },
          "districtTitle" : "",
          "cityId" : 13298,
          "cityTitle" : "город Варна",
          "regionTitle" : "",
          "stationId" : 9942,
          "stationTitle" : "Автовокзал, ул.Вл.Варненчик 158, сектор №5"
        }
      ]
    },
    {
      "countryTitle" : "Болгария",
      "point" : {
        "longitude" : 23.32434272766113,
        "latitude" : 42.69715881347656
      },
      "districtTitle" : "",
      "cityId" : 18032,
      "cityTitle" : "София",
      "regionTitle" : "",
      "stations" : [
        {
          "countryTitle" : "Болгария",
          "point" : {
            "longitude" : 23.32434272766113,
            "latitude" : 42.69715881347656
          },
          "districtTitle" : "",
          "cityId" : 18032,
          "cityTitle" : "город София",
          "regionTitle" : "",
          "stationId" : 9860,
          "stationTitle" : "Central Bus Station, 100 Kn. Maria Luiza Blvd."
        },
        {
          "countryTitle" : "Болгария",
          "point" : {
            "longitude" : 23.32434272766113,
            "latitude" : 42.69715881347656
          },
          "districtTitle" : "",
          "cityId" : 18032,
          "cityTitle" : "город София",
          "regionTitle" : "",
          "stationId" : 10032,
          "stationTitle" : "Central Bus Station, 100 Kn. Maria Luiza Blvd. pl.43,44"
        },
        {
          "countryTitle" : "Болгария",
          "point" : {
            "longitude" : 23.32434272766113,
            "latitude" : 42.69715881347656
          },
          "districtTitle" : "",
          "cityId" : 18032,
          "cityTitle" : "город София",
          "regionTitle" : "",
          "stationId" : 9862,
          "stationTitle" : "Автовокзал \"Serdika\""
        },
        {
          "countryTitle" : "Болгария",
          "point" : {
            "longitude" : 23.32434272766113,
            "latitude" : 42.69715881347656
          },
          "districtTitle" : "",
          "cityId" : 18032,
          "cityTitle" : "город София",
          "regionTitle" : "",
          "stationId" : 9958,
          "stationTitle" : "Центр города"
        },
        {
          "countryTitle" : "Болгария",
          "point" : {
            "longitude" : 23.32434272766113,
            "latitude" : 42.69715881347656
          },
          "districtTitle" : "",
          "cityId" : 18032,
          "cityTitle" : "город София",
          "regionTitle" : "",
          "stationId" : 10368,
          "stationTitle" : "Центральный автовокзал, сектор ПАРКИНГ"
        }
      ]
    },
    {
      "countryTitle" : "Болгария",
      "point" : {
        "longitude" : 26.94230842590332,
        "latitude" : 43.26373672485352
      },
      "districtTitle" : "",
      "cityId" : 13026,
      "cityTitle" : "Шумен",
      "regionTitle" : "",
      "stations" : [
        {
          "countryTitle" : "Болгария",
          "point" : {
            "longitude" : 26.94230842590332,
            "latitude" : 43.26373672485352
          },
          "districtTitle" : "",
          "cityId" : 13026,
          "cityTitle" : "город Шумен",
          "regionTitle" : "",
          "stationId" : 9974,
          "stationTitle" : "Autogara"
        },
        {
          "countryTitle" : "Болгария",
          "point" : {
            "longitude" : 26.94230842590332,
            "latitude" : 43.26373672485352
          },
          "districtTitle" : "",
          "cityId" : 13026,
          "cityTitle" : "город Шумен",
          "regionTitle" : "",
          "stationId" : 10174,
          "stationTitle" : "Автовокзал"
        }
      ]
    },
    {
      "countryTitle" : "Великобритания",
      "point" : {
        "longitude" : -0.1435285061597824,
        "latitude" : 51.48096084594727
      },
      "districtTitle" : "Лондон",
      "cityId" : 2422,
      "cityTitle" : "Лондон",
      "regionTitle" : "Англия",
      "stations" : [
        {
          "countryTitle" : "Великобритания",
          "point" : {
            "longitude" : -0.1435285061597824,
            "latitude" : 51.48096084594727
          },
          "districtTitle" : "Лондон",
          "cityId" : 2422,
          "cityTitle" : "город Лондон",
          "regionTitle" : "Англия",
          "stationId" : 553,
          "stationTitle" : "Victoria Coach Station"
        }
      ]
    },
    {
      "countryTitle" : "Венгрия",
      "point" : {
        "longitude" : 19.0648193359375,
        "latitude" : 47.5062141418457
      },
      "districtTitle" : "",
      "cityId" : 18012,
      "cityTitle" : "Будапешт",
      "regionTitle" : "",
      "stations" : [
        {
          "countryTitle" : "Венгрия",
          "point" : {
            "longitude" : 19.0648193359375,
            "latitude" : 47.5062141418457
          },
          "districtTitle" : "",
          "cityId" : 18012,
          "cityTitle" : "город Будапешт",
          "regionTitle" : "",
          "stationId" : 9782,
          "stationTitle" : "Albert Florian 12"
        },
        {
          "countryTitle" : "Венгрия",
          "point" : {
            "longitude" : 19.0648193359375,
            "latitude" : 47.5062141418457
          },
          "districtTitle" : "",
          "cityId" : 18012,
          "cityTitle" : "город Будапешт",
          "regionTitle" : "",
          "stationId" : 10268,
          "stationTitle" : "Orangeways авт. остановка"
        },
        {
          "countryTitle" : "Венгрия",
          "point" : {
            "longitude" : 19.0648193359375,
            "latitude" : 47.5062141418457
          },
          "districtTitle" : "",
          "cityId" : 18012,
          "cityTitle" : "город Будапешт",
          "regionTitle" : "",
          "stationId" : 10012,
          "stationTitle" : "Автовокзал \"Nepliget\""
        },
        {
          "countryTitle" : "Венгрия",
          "point" : {
            "longitude" : 19.0648193359375,
            "latitude" : 47.5062141418457
          },
          "districtTitle" : "",
          "cityId" : 18012,
          "cityTitle" : "город Будапешт",
          "regionTitle" : "",
          "stationId" : 10248,
          "stationTitle" : "Автовокзал \"Nepliget\", пл. 7"
        },
        {
          "countryTitle" : "Венгрия",
          "point" : {
            "longitude" : 19.0648193359375,
            "latitude" : 47.5062141418457
          },
          "districtTitle" : "",
          "cityId" : 18012,
          "cityTitle" : "город Будапешт",
          "regionTitle" : "",
          "stationId" : 10334,
          "stationTitle" : "Автовокзал Nepliget, Ulloi ut 131"
        }
      ]
    },
    {
      "countryTitle" : "Германия",
      "point" : {
        "longitude" : 6.088636875152588,
        "latitude" : 50.77822875976562
      },
      "districtTitle" : "Аахен",
      "cityId" : 2528,
      "cityTitle" : "Аахен",
      "regionTitle" : "Северный Рейн-Вестфалия",
      "stations" : [
        {
          "countryTitle" : "Германия",
          "point" : {
            "longitude" : 6.088636875152588,
            "latitude" : 50.77822875976562
          },
          "districtTitle" : "Аахен",
          "cityId" : 2528,
          "cityTitle" : "город Аахен",
          "regionTitle" : "Северный Рейн-Вестфалия",
          "stationId" : 549,
          "stationTitle" : "FERNBUSHALTESTELLE WILMERSDORF"
        }
      ]
    },
    {
      "countryTitle" : "Германия",
      "point" : {
        "longitude" : 8.533259391784668,
        "latitude" : 52.02298355102539
      },
      "districtTitle" : "Белефельд",
      "cityId" : 1580,
      "cityTitle" : "Белефельд",
      "regionTitle" : "Северный Рейн-Вестфалия",
      "stations" : [
        {
          "countryTitle" : "Германия",
          "point" : {
            "longitude" : 8.533259391784668,
            "latitude" : 52.02298355102539
          },
          "districtTitle" : "Белефельд",
          "cityId" : 1580,
          "cityTitle" : "город Белефельд",
          "regionTitle" : "Северный Рейн-Вестфалия",
          "stationId" : 567,
          "stationTitle" : "Bahnhof"
        },
        {
          "countryTitle" : "Германия",
          "point" : {
            "longitude" : 8.533259391784668,
            "latitude" : 52.02298355102539
          },
          "districtTitle" : "Белефельд",
          "cityId" : 1580,
          "cityTitle" : "город Белефельд",
          "regionTitle" : "Северный Рейн-Вестфалия",
          "stationId" : 487,
          "stationTitle" : "Bahnhof Brackwede"
        }
      ]
    },
    {
      "countryTitle" : "Германия",
      "point" : {
        "longitude" : 13.37697505950928,
        "latitude" : 52.51606750488281
      },
      "districtTitle" : "",
      "cityId" : 2406,
      "cityTitle" : "Берлин",
      "regionTitle" : "",
      "stations" : [
        {
          "countryTitle" : "Германия",
          "point" : {
            "longitude" : 13.37697505950928,
            "latitude" : 52.51606750488281
          },
          "districtTitle" : "",
          "cityId" : 2406,
          "cityTitle" : "город Берлин",
          "regionTitle" : "",
          "stationId" : 814,
          "stationTitle" : "Berlin"
        },
        {
          "countryTitle" : "Германия",
          "point" : {
            "longitude" : 13.37697505950928,
            "latitude" : 52.51606750488281
          },
          "districtTitle" : "",
          "cityId" : 2406,
          "cityTitle" : "город Берлин",
          "regionTitle" : "",
          "stationId" : 9586,
          "stationTitle" : "ZOB"
        },
        {
          "countryTitle" : "Германия",
          "point" : {
            "longitude" : 13.37697505950928,
            "latitude" : 52.51606750488281
          },
          "districtTitle" : "",
          "cityId" : 2406,
          "cityTitle" : "город Берлин",
          "regionTitle" : "",
          "stationId" : 557,
          "stationTitle" : "ZOB   U-BAHN \"KAISERDAMM\""
        },
        {
          "countryTitle" : "Германия",
          "point" : {
            "longitude" : 13.37697505950928,
            "latitude" : 52.51606750488281
          },
          "districtTitle" : "",
          "cityId" : 2406,
          "cityTitle" : "город Берлин",
          "regionTitle" : "",
          "stationId" : 442,
          "stationTitle" : "ZOB  U-BAHN \"KAISERDAMM\""
        },
        {
          "countryTitle" : "Германия",
          "point" : {
            "longitude" : 13.37697505950928,
            "latitude" : 52.51606750488281
          },
          "districtTitle" : "",
          "cityId" : 2406,
          "cityTitle" : "город Берлин",
          "regionTitle" : "",
          "stationId" : 9682,
          "stationTitle" : "ZOB am Funkturm"
        },
        {
          "countryTitle" : "Германия",
          "point" : {
            "longitude" : 13.37697505950928,
            "latitude" : 52.51606750488281
          },
          "districtTitle" : "",
          "cityId" : 2406,
          "cityTitle" : "город Берлин",
          "regionTitle" : "",
          "stationId" : 10354,
          "stationTitle" : "ZOB bei ICC"
        },
        {
          "countryTitle" : "Германия",
          "point" : {
            "longitude" : 13.37697505950928,
            "latitude" : 52.51606750488281
          },
          "districtTitle" : "",
          "cityId" : 2406,
          "cityTitle" : "город Берлин",
          "regionTitle" : "",
          "stationId" : 9790,
          "stationTitle" : "ZOB, Masurenallee 4-6"
        },
        {
          "countryTitle" : "Германия",
          "point" : {
            "longitude" : 13.37697505950928,
            "latitude" : 52.51606750488281
          },
          "districtTitle" : "",
          "cityId" : 2406,
          "cityTitle" : "город Берлин",
          "regionTitle" : "",
          "stationId" : 10066,
          "stationTitle" : "Аэропорт \"Shonefeld\""
        }
      ]
    },
    {
      "countryTitle" : "Германия",
      "point" : {
        "longitude" : 7.210785865783691,
        "latitude" : 51.4864387512207
      },
      "districtTitle" : "Бохум",
      "cityId" : 2550,
      "cityTitle" : "Бохум",
      "regionTitle" : "Северный Рейн-Вестфалия",
      "stations" : [
        {
          "countryTitle" : "Германия",
          "point" : {
            "longitude" : 7.210785865783691,
            "latitude" : 51.4864387512207
          },
          "districtTitle" : "Бохум",
          "cityId" : 2550,
          "cityTitle" : "город Бохум",
          "regionTitle" : "Северный Рейн-Вестфалия",
          "stationId" : 547,
          "stationTitle" : "Витеннер штр., под Ж\/Д мостом"
        }
      ]
    },
    {
      "countryTitle" : "Германия",
      "point" : {
        "longitude" : 10.52739334106445,
        "latitude" : 52.26543807983398
      },
      "districtTitle" : "Брауншвейг",
      "cityId" : 1552,
      "cityTitle" : "Брауншвейг",
      "regionTitle" : "Нижняя Саксония",
      "stations" : [
        {
          "countryTitle" : "Германия",
          "point" : {
            "longitude" : 10.52739334106445,
            "latitude" : 52.26543807983398
          },
          "districtTitle" : "Брауншвейг",
          "cityId" : 1552,
          "cityTitle" : "город Брауншвейг",
          "regionTitle" : "Нижняя Саксония",
          "stationId" : 306,
          "stationTitle" : "57 съезд (Автохов \"ШЕЛ\")"
        }
      ]
    },
    {
      "countryTitle" : "Германия",
      "point" : {
        "longitude" : 9.992464065551758,
        "latitude" : 53.55333709716797
      },
      "districtTitle" : "",
      "cityId" : 2432,
      "cityTitle" : "Гамбург",
      "regionTitle" : "",
      "stations" : [
        {
          "countryTitle" : "Германия",
          "point" : {
            "longitude" : 9.992464065551758,
            "latitude" : 53.55333709716797
          },
          "districtTitle" : "",
          "cityId" : 2432,
          "cityTitle" : "город Гамбург",
          "regionTitle" : "",
          "stationId" : 10298,
          "stationTitle" : "Zentral Omnibus Bahnhof"
        },
        {
          "countryTitle" : "Германия",
          "point" : {
            "longitude" : 9.992464065551758,
            "latitude" : 53.55333709716797
          },
          "districtTitle" : "",
          "cityId" : 2432,
          "cityTitle" : "город Гамбург",
          "regionTitle" : "",
          "stationId" : 9708,
          "stationTitle" : "ZOB am Hbf"
        },
        {
          "countryTitle" : "Германия",
          "point" : {
            "longitude" : 9.992464065551758,
            "latitude" : 53.55333709716797
          },
          "districtTitle" : "",
          "cityId" : 2432,
          "cityTitle" : "город Гамбург",
          "regionTitle" : "",
          "stationId" : 10058,
          "stationTitle" : "ZOB, Adenauerallee 74"
        },
        {
          "countryTitle" : "Германия",
          "point" : {
            "longitude" : 9.992464065551758,
            "latitude" : 53.55333709716797
          },
          "districtTitle" : "",
          "cityId" : 2432,
          "cityTitle" : "город Гамбург",
          "regionTitle" : "",
          "stationId" : 10300,
          "stationTitle" : "ZOB, Adenauerallee 78"
        },
        {
          "countryTitle" : "Германия",
          "point" : {
            "longitude" : 9.992464065551758,
            "latitude" : 53.55333709716797
          },
          "districtTitle" : "",
          "cityId" : 2432,
          "cityTitle" : "город Гамбург",
          "regionTitle" : "",
          "stationId" : 9814,
          "stationTitle" : "ZOB, Bussteig D, Adenauerallee"
        }
      ]
    },
    {
      "countryTitle" : "Германия",
      "point" : {
        "longitude" : 9.738142013549805,
        "latitude" : 52.37226486206055
      },
      "districtTitle" : "",
      "cityId" : 1526,
      "cityTitle" : "Ганновер",
      "regionTitle" : "Нижняя Саксония",
      "stations" : [
        {
          "countryTitle" : "Германия",
          "point" : {
            "longitude" : 9.738142013549805,
            "latitude" : 52.37226486206055
          },
          "districtTitle" : "",
          "cityId" : 1526,
          "cityTitle" : "город Ганновер",
          "regionTitle" : "Нижняя Саксония",
          "stationId" : 10220,
          "stationTitle" : "Hbf, Omnibusbahnhof Bstg. 5"
        },
        {
          "countryTitle" : "Германия",
          "point" : {
            "longitude" : 9.738142013549805,
            "latitude" : 52.37226486206055
          },
          "districtTitle" : "",
          "cityId" : 1526,
          "cityTitle" : "город Ганновер",
          "regionTitle" : "Нижняя Саксония",
          "stationId" : 10062,
          "stationTitle" : "Hbf, ZOB Hst. 5"
        },
        {
          "countryTitle" : "Германия",
          "point" : {
            "longitude" : 9.738142013549805,
            "latitude" : 52.37226486206055
          },
          "districtTitle" : "",
          "cityId" : 1526,
          "cityTitle" : "город Ганновер",
          "regionTitle" : "Нижняя Саксония",
          "stationId" : 9550,
          "stationTitle" : "Zentrale Omnibus Bahnhof (ZOB);Bushalte 5C Ecke Hamburger Allee\/Cellerstrasse"
        },
        {
          "countryTitle" : "Германия",
          "point" : {
            "longitude" : 9.738142013549805,
            "latitude" : 52.37226486206055
          },
          "districtTitle" : "",
          "cityId" : 1526,
          "cityTitle" : "город Ганновер",
          "regionTitle" : "Нижняя Саксония",
          "stationId" : 9554,
          "stationTitle" : "ZOB"
        },
        {
          "countryTitle" : "Германия",
          "point" : {
            "longitude" : 9.738142013549805,
            "latitude" : 52.37226486206055
          },
          "districtTitle" : "",
          "cityId" : 1526,
          "cityTitle" : "город Ганновер",
          "regionTitle" : "Нижняя Саксония",
          "stationId" : 10262,
          "stationTitle" : "ZOB - Hamburger Allee"
        },
        {
          "countryTitle" : "Германия",
          "point" : {
            "longitude" : 9.738142013549805,
            "latitude" : 52.37226486206055
          },
          "districtTitle" : "",
          "cityId" : 1526,
          "cityTitle" : "город Ганновер",
          "regionTitle" : "Нижняя Саксония",
          "stationId" : 573,
          "stationTitle" : "Zob Центральный а\/в на остановке напротив вокзала"
        },
        {
          "countryTitle" : "Германия",
          "point" : {
            "longitude" : 9.738142013549805,
            "latitude" : 52.37226486206055
          },
          "districtTitle" : "",
          "cityId" : 1526,
          "cityTitle" : "город Ганновер",
          "regionTitle" : "Нижняя Саксония",
          "stationId" : 9544,
          "stationTitle" : "Автовокзал, Rundestraße 12"
        },
        {
          "countryTitle" : "Германия",
          "point" : {
            "longitude" : 9.738142013549805,
            "latitude" : 52.37226486206055
          },
          "districtTitle" : "",
          "cityId" : 1526,
          "cityTitle" : "город Ганновер",
          "regionTitle" : "Нижняя Саксония",
          "stationId" : 304,
          "stationTitle" : "Международный аэропорт (Гостиница \"Маритим\")"
        }
      ]
    },
    {
      "countryTitle" : "Германия",
      "point" : {
        "longitude" : 7.458290100097656,
        "latitude" : 51.51660537719727
      },
      "districtTitle" : "Дортмунд",
      "cityId" : 1626,
      "cityTitle" : "Дортмунд",
      "regionTitle" : "Северный Рейн-Вестфалия",
      "stations" : [
        {
          "countryTitle" : "Германия",
          "point" : {
            "longitude" : 7.458290100097656,
            "latitude" : 51.51660537719727
          },
          "districtTitle" : "Дортмунд",
          "cityId" : 1626,
          "cityTitle" : "город Дортмунд",
          "regionTitle" : "Северный Рейн-Вестфалия",
          "stationId" : 493,
          "stationTitle" : "А\/В, напротив здания Ж\/Д вокзала"
        },
        {
          "countryTitle" : "Германия",
          "point" : {
            "longitude" : 7.458290100097656,
            "latitude" : 51.51660537719727
          },
          "districtTitle" : "Дортмунд",
          "cityId" : 1626,
          "cityTitle" : "город Дортмунд",
          "regionTitle" : "Северный Рейн-Вестфалия",
          "stationId" : 302,
          "stationTitle" : "Центральный железнодорожный вокзал"
        }
      ]
    },
    {
      "countryTitle" : "Германия",
      "point" : {
        "longitude" : 13.74080085754395,
        "latitude" : 51.05362701416016
      },
      "districtTitle" : "",
      "cityId" : 2426,
      "cityTitle" : "Дрезден",
      "regionTitle" : "Саксония",
      "stations" : [
        {
          "countryTitle" : "Германия",
          "point" : {
            "longitude" : 13.74080085754395,
            "latitude" : 51.05362701416016
          },
          "districtTitle" : "",
          "cityId" : 2426,
          "cityTitle" : "город Дрезден",
          "regionTitle" : "Саксония",
          "stationId" : 9902,
          "stationTitle" : "Hbf, Nordseite, Bayrische Str."
        },
        {
          "countryTitle" : "Германия",
          "point" : {
            "longitude" : 13.74080085754395,
            "latitude" : 51.05362701416016
          },
          "districtTitle" : "",
          "cityId" : 2426,
          "cityTitle" : "город Дрезден",
          "regionTitle" : "Саксония",
          "stationId" : 9824,
          "stationTitle" : "Hbf., Bayerische Strasse"
        },
        {
          "countryTitle" : "Германия",
          "point" : {
            "longitude" : 13.74080085754395,
            "latitude" : 51.05362701416016
          },
          "districtTitle" : "",
          "cityId" : 2426,
          "cityTitle" : "город Дрезден",
          "regionTitle" : "Саксония",
          "stationId" : 9706,
          "stationTitle" : "Riegel Platz"
        },
        {
          "countryTitle" : "Германия",
          "point" : {
            "longitude" : 13.74080085754395,
            "latitude" : 51.05362701416016
          },
          "districtTitle" : "",
          "cityId" : 2426,
          "cityTitle" : "город Дрезден",
          "regionTitle" : "Саксония",
          "stationId" : 9704,
          "stationTitle" : "ZOB bei Hauptbahnhof, Bayrische Str."
        }
      ]
    },
    {
      "countryTitle" : "Германия",
      "point" : {
        "longitude" : 6.761398792266846,
        "latitude" : 51.4527587890625
      },
      "districtTitle" : "Дюисбург",
      "cityId" : 2428,
      "cityTitle" : "Дюисбург",
      "regionTitle" : "Северный Рейн-Вестфалия",
      "stations" : [
        {
          "countryTitle" : "Германия",
          "point" : {
            "longitude" : 6.761398792266846,
            "latitude" : 51.4527587890625
          },
          "districtTitle" : "Дюисбург",
          "cityId" : 2428,
          "cityTitle" : "город Дюисбург",
          "regionTitle" : "Северный Рейн-Вестфалия",
          "stationId" : 489,
          "stationTitle" : "Автобусная остановка на Главном вокзале, Меркатор штр."
        }
      ]
    },
    {
      "countryTitle" : "Германия",
      "point" : {
        "longitude" : 6.776037216186523,
        "latitude" : 51.21562576293945
      },
      "districtTitle" : "",
      "cityId" : 1630,
      "cityTitle" : "Дюссельдорф",
      "regionTitle" : "Северный Рейн-Вестфалия",
      "stations" : [
        {
          "countryTitle" : "Германия",
          "point" : {
            "longitude" : 6.776037216186523,
            "latitude" : 51.21562576293945
          },
          "districtTitle" : "",
          "cityId" : 1630,
          "cityTitle" : "город Дюссельдорф",
          "regionTitle" : "Северный Рейн-Вестфалия",
          "stationId" : 9560,
          "stationTitle" : "Hbf, Fernbusbahnhof, Worringer Str.140"
        },
        {
          "countryTitle" : "Германия",
          "point" : {
            "longitude" : 6.776037216186523,
            "latitude" : 51.21562576293945
          },
          "districtTitle" : "",
          "cityId" : 1630,
          "cityTitle" : "город Дюссельдорф",
          "regionTitle" : "Северный Рейн-Вестфалия",
          "stationId" : 9556,
          "stationTitle" : "Hbf.,  Worringerstr."
        },
        {
          "countryTitle" : "Германия",
          "point" : {
            "longitude" : 6.776037216186523,
            "latitude" : 51.21562576293945
          },
          "districtTitle" : "",
          "cityId" : 1630,
          "cityTitle" : "город Дюссельдорф",
          "regionTitle" : "Северный Рейн-Вестфалия",
          "stationId" : 10102,
          "stationTitle" : "Hbf., Fernbusbhf., Worringer Str."
        },
        {
          "countryTitle" : "Германия",
          "point" : {
            "longitude" : 6.776037216186523,
            "latitude" : 51.21562576293945
          },
          "districtTitle" : "",
          "cityId" : 1630,
          "cityTitle" : "город Дюссельдорф",
          "regionTitle" : "Северный Рейн-Вестфалия",
          "stationId" : 10056,
          "stationTitle" : "Hbf.,Worringer Str. 107"
        },
        {
          "countryTitle" : "Германия",
          "point" : {
            "longitude" : 6.776037216186523,
            "latitude" : 51.21562576293945
          },
          "districtTitle" : "",
          "cityId" : 1630,
          "cityTitle" : "город Дюссельдорф",
          "regionTitle" : "Северный Рейн-Вестфалия",
          "stationId" : 9558,
          "stationTitle" : "ZOB"
        },
        {
          "countryTitle" : "Германия",
          "point" : {
            "longitude" : 6.776037216186523,
            "latitude" : 51.21562576293945
          },
          "districtTitle" : "",
          "cityId" : 1630,
          "cityTitle" : "город Дюссельдорф",
          "regionTitle" : "Северный Рейн-Вестфалия",
          "stationId" : 523,
          "stationTitle" : "Гл.ж\/д вокзал, Курфюрстен штр., возле почты"
        },
        {
          "countryTitle" : "Германия",
          "point" : {
            "longitude" : 6.776037216186523,
            "latitude" : 51.21562576293945
          },
          "districtTitle" : "",
          "cityId" : 1630,
          "cityTitle" : "город Дюссельдорф",
          "regionTitle" : "Северный Рейн-Вестфалия",
          "stationId" : 300,
          "stationTitle" : "Центральный железнодорожный вокзал"
        }
      ]
    },
    {
      "countryTitle" : "Германия",
      "point" : {
        "longitude" : 10.38601112365723,
        "latitude" : 52.14804458618164
      },
      "districtTitle" : "",
      "cityId" : 2448,
      "cityTitle" : "Зальцгиттер",
      "regionTitle" : "Нижняя Саксония",
      "stations" : [
        {
          "countryTitle" : "Германия",
          "point" : {
            "longitude" : 10.38601112365723,
            "latitude" : 52.14804458618164
          },
          "districtTitle" : "",
          "cityId" : 2448,
          "cityTitle" : "город Зальцгиттер",
          "regionTitle" : "Нижняя Саксония",
          "stationId" : 521,
          "stationTitle" : "ул.Альберт, Швайцер Ратуша)"
        }
      ]
    },
    {
      "countryTitle" : "Германия",
      "point" : {
        "longitude" : 8.40864372253418,
        "latitude" : 49.01078414916992
      },
      "districtTitle" : "Карлсруэ",
      "cityId" : 1900,
      "cityTitle" : "Карлсруэ",
      "regionTitle" : "Баден-Вюртемберг",
      "stations" : [
        {
          "countryTitle" : "Германия",
          "point" : {
            "longitude" : 8.40864372253418,
            "latitude" : 49.01078414916992
          },
          "districtTitle" : "Карлсруэ",
          "cityId" : 1900,
          "cityTitle" : "город Карлсруэ",
          "regionTitle" : "Баден-Вюртемберг",
          "stationId" : 290,
          "stationTitle" : "Главный железнодорожный вокзал"
        },
        {
          "countryTitle" : "Германия",
          "point" : {
            "longitude" : 8.40864372253418,
            "latitude" : 49.01078414916992
          },
          "districtTitle" : "Карлсруэ",
          "cityId" : 1900,
          "cityTitle" : "город Карлсруэ",
          "regionTitle" : "Баден-Вюртемберг",
          "stationId" : 1194,
          "stationTitle" : "Центральный автовокзал"
        }
      ]
    },
    {
      "countryTitle" : "Германия",
      "point" : {
        "longitude" : 6.955152034759521,
        "latitude" : 50.94166564941406
      },
      "districtTitle" : "Кёльн",
      "cityId" : 1676,
      "cityTitle" : "Кёльн",
      "regionTitle" : "Северный Рейн-Вестфалия",
      "stations" : [
        {
          "countryTitle" : "Германия",
          "point" : {
            "longitude" : 6.955152034759521,
            "latitude" : 50.94166564941406
          },
          "districtTitle" : "Кёльн",
          "cityId" : 1676,
          "cityTitle" : "город Кёльн",
          "regionTitle" : "Северный Рейн-Вестфалия",
          "stationId" : 569,
          "stationTitle" : "AVTOVOKZAL"
        },
        {
          "countryTitle" : "Германия",
          "point" : {
            "longitude" : 6.955152034759521,
            "latitude" : 50.94166564941406
          },
          "districtTitle" : "Кёльн",
          "cityId" : 1676,
          "cityTitle" : "город Кёльн",
          "regionTitle" : "Северный Рейн-Вестфалия",
          "stationId" : 497,
          "stationTitle" : "Автовокзал, пл.№4"
        },
        {
          "countryTitle" : "Германия",
          "point" : {
            "longitude" : 6.955152034759521,
            "latitude" : 50.94166564941406
          },
          "districtTitle" : "Кёльн",
          "cityId" : 1676,
          "cityTitle" : "город Кёльн",
          "regionTitle" : "Северный Рейн-Вестфалия",
          "stationId" : 296,
          "stationTitle" : "Ценральный автовокал (Старый Кёльнский собор)"
        }
      ]
    },
    {
      "countryTitle" : "Германия",
      "point" : {
        "longitude" : 7.592766761779785,
        "latitude" : 50.36079406738281
      },
      "districtTitle" : "Кобленц",
      "cityId" : 1722,
      "cityTitle" : "Кобленц",
      "regionTitle" : "Рейнланд-Пфальц",
      "stations" : [
        {
          "countryTitle" : "Германия",
          "point" : {
            "longitude" : 7.592766761779785,
            "latitude" : 50.36079406738281
          },
          "districtTitle" : "Кобленц",
          "cityId" : 1722,
          "cityTitle" : "город Кобленц",
          "regionTitle" : "Рейнланд-Пфальц",
          "stationId" : 294,
          "stationTitle" : "Растхоф Хайлигенрот (Монтабауэр)"
        }
      ]
    },
    {
      "countryTitle" : "Германия",
      "point" : {
        "longitude" : 12.38593482971191,
        "latitude" : 51.34519958496094
      },
      "districtTitle" : "",
      "cityId" : 2392,
      "cityTitle" : "Лейпциг",
      "regionTitle" : "Саксония",
      "stations" : [
        {
          "countryTitle" : "Германия",
          "point" : {
            "longitude" : 12.38593482971191,
            "latitude" : 51.34519958496094
          },
          "districtTitle" : "",
          "cityId" : 2392,
          "cityTitle" : "город Лейпциг",
          "regionTitle" : "Саксония",
          "stationId" : 427,
          "stationTitle" : "Goete str"
        },
        {
          "countryTitle" : "Германия",
          "point" : {
            "longitude" : 12.38593482971191,
            "latitude" : 51.34519958496094
          },
          "districtTitle" : "",
          "cityId" : 2392,
          "cityTitle" : "город Лейпциг",
          "regionTitle" : "Саксония",
          "stationId" : 529,
          "stationTitle" : "Goethestrasse"
        },
        {
          "countryTitle" : "Германия",
          "point" : {
            "longitude" : 12.38593482971191,
            "latitude" : 51.34519958496094
          },
          "districtTitle" : "",
          "cityId" : 2392,
          "cityTitle" : "город Лейпциг",
          "regionTitle" : "Саксония",
          "stationId" : 10352,
          "stationTitle" : "Hbf"
        },
        {
          "countryTitle" : "Германия",
          "point" : {
            "longitude" : 12.38593482971191,
            "latitude" : 51.34519958496094
          },
          "districtTitle" : "",
          "cityId" : 2392,
          "cityTitle" : "город Лейпциг",
          "regionTitle" : "Саксония",
          "stationId" : 9816,
          "stationTitle" : "Hbf.,Goethestr"
        },
        {
          "countryTitle" : "Германия",
          "point" : {
            "longitude" : 12.38593482971191,
            "latitude" : 51.34519958496094
          },
          "districtTitle" : "",
          "cityId" : 2392,
          "cityTitle" : "город Лейпциг",
          "regionTitle" : "Саксония",
          "stationId" : 9584,
          "stationTitle" : "ZOB"
        },
        {
          "countryTitle" : "Германия",
          "point" : {
            "longitude" : 12.38593482971191,
            "latitude" : 51.34519958496094
          },
          "districtTitle" : "",
          "cityId" : 2392,
          "cityTitle" : "город Лейпциг",
          "regionTitle" : "Саксония",
          "stationId" : 10284,
          "stationTitle" : "главний вокзал, Гётештр.,Ам Шванентайх"
        },
        {
          "countryTitle" : "Германия",
          "point" : {
            "longitude" : 12.38593482971191,
            "latitude" : 51.34519958496094
          },
          "districtTitle" : "",
          "cityId" : 2392,
          "cityTitle" : "город Лейпциг",
          "regionTitle" : "Саксония",
          "stationId" : 9876,
          "stationTitle" : "Остановка автобусов на ул. Goethestrasse"
        }
      ]
    },
    {
      "countryTitle" : "Германия",
      "point" : {
        "longitude" : 11.62777519226074,
        "latitude" : 52.13185882568359
      },
      "districtTitle" : "",
      "cityId" : 1520,
      "cityTitle" : "Магдебург",
      "regionTitle" : "Саксония-Анхальт",
      "stations" : [
        {
          "countryTitle" : "Германия",
          "point" : {
            "longitude" : 11.62777519226074,
            "latitude" : 52.13185882568359
          },
          "districtTitle" : "",
          "cityId" : 1520,
          "cityTitle" : "город Магдебург",
          "regionTitle" : "Саксония-Анхальт",
          "stationId" : 9666,
          "stationTitle" : "Hbf, Neuer ZOB, Maybachstr."
        },
        {
          "countryTitle" : "Германия",
          "point" : {
            "longitude" : 11.62777519226074,
            "latitude" : 52.13185882568359
          },
          "districtTitle" : "",
          "cityId" : 1520,
          "cityTitle" : "город Магдебург",
          "regionTitle" : "Саксония-Анхальт",
          "stationId" : 10052,
          "stationTitle" : "Hbf. ZOB, Hst. 7"
        },
        {
          "countryTitle" : "Германия",
          "point" : {
            "longitude" : 11.62777519226074,
            "latitude" : 52.13185882568359
          },
          "districtTitle" : "",
          "cityId" : 1520,
          "cityTitle" : "город Магдебург",
          "regionTitle" : "Саксония-Анхальт",
          "stationId" : 9534,
          "stationTitle" : "ZOB am Hbf"
        },
        {
          "countryTitle" : "Германия",
          "point" : {
            "longitude" : 11.62777519226074,
            "latitude" : 52.13185882568359
          },
          "districtTitle" : "",
          "cityId" : 1520,
          "cityTitle" : "город Магдебург",
          "regionTitle" : "Саксония-Анхальт",
          "stationId" : 9532,
          "stationTitle" : "ZOB, Konr.-Adenauer-Platz"
        },
        {
          "countryTitle" : "Германия",
          "point" : {
            "longitude" : 11.62777519226074,
            "latitude" : 52.13185882568359
          },
          "districtTitle" : "",
          "cityId" : 1520,
          "cityTitle" : "город Магдебург",
          "regionTitle" : "Саксония-Анхальт",
          "stationId" : 10258,
          "stationTitle" : "Автовокзал, Kölner Platz"
        },
        {
          "countryTitle" : "Германия",
          "point" : {
            "longitude" : 11.62777519226074,
            "latitude" : 52.13185882568359
          },
          "districtTitle" : "",
          "cityId" : 1520,
          "cityTitle" : "город Магдебург",
          "regionTitle" : "Саксония-Анхальт",
          "stationId" : 268,
          "stationTitle" : "Центральный железнодорожный вокзал"
        }
      ]
    },
    {
      "countryTitle" : "Германия",
      "point" : {
        "longitude" : 8.466773986816406,
        "latitude" : 49.48650360107422
      },
      "districtTitle" : "Мангейм",
      "cityId" : 1850,
      "cityTitle" : "Мангейм",
      "regionTitle" : "Баден-Вюртемберг",
      "stations" : [
        {
          "countryTitle" : "Германия",
          "point" : {
            "longitude" : 8.466773986816406,
            "latitude" : 49.48650360107422
          },
          "districtTitle" : "Мангейм",
          "cityId" : 1850,
          "cityTitle" : "город Мангейм",
          "regionTitle" : "Баден-Вюртемберг",
          "stationId" : 286,
          "stationTitle" : "ADAC"
        }
      ]
    },
    {
      "countryTitle" : "Германия",
      "point" : {
        "longitude" : 6.595071315765381,
        "latitude" : 50.88432312011719
      },
      "districtTitle" : "Рейн-Эрфт",
      "cityId" : 2464,
      "cityTitle" : "Манхайм",
      "regionTitle" : "Северный Рейн-Вестфалия",
      "stations" : [
        {
          "countryTitle" : "Германия",
          "point" : {
            "longitude" : 6.595071315765381,
            "latitude" : 50.88432312011719
          },
          "districtTitle" : "Рейн-Эрфт",
          "cityId" : 2464,
          "cityTitle" : "город Манхайм",
          "regionTitle" : "Северный Рейн-Вестфалия",
          "stationId" : 429,
          "stationTitle" : "HEINRICH-VON-STEFEN strasse"
        }
      ]
    },
    {
      "countryTitle" : "Германия",
      "point" : {
        "longitude" : 11.57752323150635,
        "latitude" : 48.13640594482422
      },
      "districtTitle" : "",
      "cityId" : 2414,
      "cityTitle" : "Мюнхен",
      "regionTitle" : "Бавария",
      "stations" : [
        {
          "countryTitle" : "Германия",
          "point" : {
            "longitude" : 11.57752323150635,
            "latitude" : 48.13640594482422
          },
          "districtTitle" : "",
          "cityId" : 2414,
          "cityTitle" : "город Мюнхен",
          "regionTitle" : "Бавария",
          "stationId" : 571,
          "stationTitle" : "Bahnhof Hackerbruecke"
        },
        {
          "countryTitle" : "Германия",
          "point" : {
            "longitude" : 11.57752323150635,
            "latitude" : 48.13640594482422
          },
          "districtTitle" : "",
          "cityId" : 2414,
          "cityTitle" : "город Мюнхен",
          "regionTitle" : "Бавария",
          "stationId" : 9588,
          "stationTitle" : "Fröttmaning P+R Parkplatz"
        },
        {
          "countryTitle" : "Германия",
          "point" : {
            "longitude" : 11.57752323150635,
            "latitude" : 48.13640594482422
          },
          "districtTitle" : "",
          "cityId" : 2414,
          "cityTitle" : "город Мюнхен",
          "regionTitle" : "Бавария",
          "stationId" : 398,
          "stationTitle" : "HACKERBRUECKE"
        },
        {
          "countryTitle" : "Германия",
          "point" : {
            "longitude" : 11.57752323150635,
            "latitude" : 48.13640594482422
          },
          "districtTitle" : "",
          "cityId" : 2414,
          "cityTitle" : "город Мюнхен",
          "regionTitle" : "Бавария",
          "stationId" : 10292,
          "stationTitle" : "P+R Fröttmaning"
        },
        {
          "countryTitle" : "Германия",
          "point" : {
            "longitude" : 11.57752323150635,
            "latitude" : 48.13640594482422
          },
          "districtTitle" : "",
          "cityId" : 2414,
          "cityTitle" : "город Мюнхен",
          "regionTitle" : "Бавария",
          "stationId" : 10294,
          "stationTitle" : "park. P+R, Fröttmaning st. DTG"
        },
        {
          "countryTitle" : "Германия",
          "point" : {
            "longitude" : 11.57752323150635,
            "latitude" : 48.13640594482422
          },
          "districtTitle" : "",
          "cityId" : 2414,
          "cityTitle" : "город Мюнхен",
          "regionTitle" : "Бавария",
          "stationId" : 10118,
          "stationTitle" : "ZOB"
        },
        {
          "countryTitle" : "Германия",
          "point" : {
            "longitude" : 11.57752323150635,
            "latitude" : 48.13640594482422
          },
          "districtTitle" : "",
          "cityId" : 2414,
          "cityTitle" : "город Мюнхен",
          "regionTitle" : "Бавария",
          "stationId" : 9684,
          "stationTitle" : "ZOB, Arnulfstr.21, Bussteig 5"
        },
        {
          "countryTitle" : "Германия",
          "point" : {
            "longitude" : 11.57752323150635,
            "latitude" : 48.13640594482422
          },
          "districtTitle" : "",
          "cityId" : 2414,
          "cityTitle" : "город Мюнхен",
          "regionTitle" : "Бавария",
          "stationId" : 10190,
          "stationTitle" : "Автовокзал \"Hackerbrücke\""
        },
        {
          "countryTitle" : "Германия",
          "point" : {
            "longitude" : 11.57752323150635,
            "latitude" : 48.13640594482422
          },
          "districtTitle" : "",
          "cityId" : 2414,
          "cityTitle" : "город Мюнхен",
          "regionTitle" : "Бавария",
          "stationId" : 9908,
          "stationTitle" : "Автовокзал \"Hackerbrücke\", платформа №17"
        },
        {
          "countryTitle" : "Германия",
          "point" : {
            "longitude" : 11.57752323150635,
            "latitude" : 48.13640594482422
          },
          "districtTitle" : "",
          "cityId" : 2414,
          "cityTitle" : "город Мюнхен",
          "regionTitle" : "Бавария",
          "stationId" : 10358,
          "stationTitle" : "Автовокзал, Arnulfstraße 21"
        }
      ]
    },
    {
      "countryTitle" : "Германия",
      "point" : {
        "longitude" : 11.07348823547363,
        "latitude" : 49.4543342590332
      },
      "districtTitle" : "",
      "cityId" : 2408,
      "cityTitle" : "Нюрнберг",
      "regionTitle" : "Бавария",
      "stations" : [
        {
          "countryTitle" : "Германия",
          "point" : {
            "longitude" : 11.07348823547363,
            "latitude" : 49.4543342590332
          },
          "districtTitle" : "",
          "cityId" : 2408,
          "cityTitle" : "город Нюрнберг",
          "regionTitle" : "Бавария",
          "stationId" : 425,
          "stationTitle" : "BANHNHOF str., Adcom Center"
        },
        {
          "countryTitle" : "Германия",
          "point" : {
            "longitude" : 11.07348823547363,
            "latitude" : 49.4543342590332
          },
          "districtTitle" : "",
          "cityId" : 2408,
          "cityTitle" : "город Нюрнберг",
          "regionTitle" : "Бавария",
          "stationId" : 10350,
          "stationTitle" : "Bhb Kätte-Strobel Str."
        },
        {
          "countryTitle" : "Германия",
          "point" : {
            "longitude" : 11.07348823547363,
            "latitude" : 49.4543342590332
          },
          "districtTitle" : "",
          "cityId" : 2408,
          "cityTitle" : "город Нюрнберг",
          "regionTitle" : "Бавария",
          "stationId" : 575,
          "stationTitle" : "Busbahnhof am Hbf"
        },
        {
          "countryTitle" : "Германия",
          "point" : {
            "longitude" : 11.07348823547363,
            "latitude" : 49.4543342590332
          },
          "districtTitle" : "",
          "cityId" : 2408,
          "cityTitle" : "город Нюрнберг",
          "regionTitle" : "Бавария",
          "stationId" : 9702,
          "stationTitle" : "Hbf\/Willi‐Brand‐Platz"
        },
        {
          "countryTitle" : "Германия",
          "point" : {
            "longitude" : 11.07348823547363,
            "latitude" : 49.4543342590332
          },
          "districtTitle" : "",
          "cityId" : 2408,
          "cityTitle" : "город Нюрнберг",
          "regionTitle" : "Бавария",
          "stationId" : 10288,
          "stationTitle" : "ZOB"
        },
        {
          "countryTitle" : "Германия",
          "point" : {
            "longitude" : 11.07348823547363,
            "latitude" : 49.4543342590332
          },
          "districtTitle" : "",
          "cityId" : 2408,
          "cityTitle" : "город Нюрнберг",
          "regionTitle" : "Бавария",
          "stationId" : 9766,
          "stationTitle" : "ZOB, Bahnhofstr. am Adcom-Center"
        },
        {
          "countryTitle" : "Германия",
          "point" : {
            "longitude" : 11.07348823547363,
            "latitude" : 49.4543342590332
          },
          "districtTitle" : "",
          "cityId" : 2408,
          "cityTitle" : "город Нюрнберг",
          "regionTitle" : "Бавария",
          "stationId" : 10108,
          "stationTitle" : "ZOB, Bahnhofstr.\/ Käte-Strobel-Str., ADCOM Center"
        },
        {
          "countryTitle" : "Германия",
          "point" : {
            "longitude" : 11.07348823547363,
            "latitude" : 49.4543342590332
          },
          "districtTitle" : "",
          "cityId" : 2408,
          "cityTitle" : "город Нюрнберг",
          "regionTitle" : "Бавария",
          "stationId" : 9812,
          "stationTitle" : "ZOB, Bahnhofstr.11, Im Adcom. Center"
        },
        {
          "countryTitle" : "Германия",
          "point" : {
            "longitude" : 11.07348823547363,
            "latitude" : 49.4543342590332
          },
          "districtTitle" : "",
          "cityId" : 2408,
          "cityTitle" : "город Нюрнберг",
          "regionTitle" : "Бавария",
          "stationId" : 10198,
          "stationTitle" : "ZOB, Rothenburger Str."
        }
      ]
    },
    {
      "countryTitle" : "Германия",
      "point" : {
        "longitude" : 8.030592918395996,
        "latitude" : 52.27877426147461
      },
      "districtTitle" : "Оснабрюк",
      "cityId" : 2480,
      "cityTitle" : "Оснабрюк",
      "regionTitle" : "Нижняя Саксония",
      "stations" : [
        {
          "countryTitle" : "Германия",
          "point" : {
            "longitude" : 8.030592918395996,
            "latitude" : 52.27877426147461
          },
          "districtTitle" : "Оснабрюк",
          "cityId" : 2480,
          "cityTitle" : "город Оснабрюк",
          "regionTitle" : "Нижняя Саксония",
          "stationId" : 561,
          "stationTitle" : "А\/В"
        }
      ]
    },
    {
      "countryTitle" : "Германия",
      "point" : {
        "longitude" : 13.03667545318604,
        "latitude" : 52.40410995483398
      },
      "districtTitle" : "Потсдам",
      "cityId" : 2516,
      "cityTitle" : "Потсдам",
      "regionTitle" : "Бранденбург",
      "stations" : [
        {
          "countryTitle" : "Германия",
          "point" : {
            "longitude" : 13.03667545318604,
            "latitude" : 52.40410995483398
          },
          "districtTitle" : "Потсдам",
          "cityId" : 2516,
          "cityTitle" : "город Потсдам",
          "regionTitle" : "Бранденбург",
          "stationId" : 587,
          "stationTitle" : "Центральный автовокзал"
        }
      ]
    },
    {
      "countryTitle" : "Германия",
      "point" : {
        "longitude" : 9.987865447998047,
        "latitude" : 48.39714050292969
      },
      "districtTitle" : "",
      "cityId" : 2520,
      "cityTitle" : "Ульм",
      "regionTitle" : "Баден-Вюртемберг",
      "stations" : [
        {
          "countryTitle" : "Германия",
          "point" : {
            "longitude" : 9.987865447998047,
            "latitude" : 48.39714050292969
          },
          "districtTitle" : "",
          "cityId" : 2520,
          "cityTitle" : "город Ульм",
          "regionTitle" : "Баден-Вюртемберг",
          "stationId" : 10216,
          "stationTitle" : "OB am Hbf, Friedrich-Ebert-Str."
        },
        {
          "countryTitle" : "Германия",
          "point" : {
            "longitude" : 9.987865447998047,
            "latitude" : 48.39714050292969
          },
          "districtTitle" : "",
          "cityId" : 2520,
          "cityTitle" : "город Ульм",
          "regionTitle" : "Баден-Вюртемберг",
          "stationId" : 10308,
          "stationTitle" : "schlossgarten"
        },
        {
          "countryTitle" : "Германия",
          "point" : {
            "longitude" : 9.987865447998047,
            "latitude" : 48.39714050292969
          },
          "districtTitle" : "",
          "cityId" : 2520,
          "cityTitle" : "город Ульм",
          "regionTitle" : "Баден-Вюртемберг",
          "stationId" : 10310,
          "stationTitle" : "ZOB"
        },
        {
          "countryTitle" : "Германия",
          "point" : {
            "longitude" : 9.987865447998047,
            "latitude" : 48.39714050292969
          },
          "districtTitle" : "",
          "cityId" : 2520,
          "cityTitle" : "город Ульм",
          "regionTitle" : "Баден-Вюртемберг",
          "stationId" : 9722,
          "stationTitle" : "ZOB oder Rasthof"
        },
        {
          "countryTitle" : "Германия",
          "point" : {
            "longitude" : 9.987865447998047,
            "latitude" : 48.39714050292969
          },
          "districtTitle" : "",
          "cityId" : 2520,
          "cityTitle" : "город Ульм",
          "regionTitle" : "Баден-Вюртемберг",
          "stationId" : 1186,
          "stationTitle" : "Центральный автовокзал"
        }
      ]
    },
    {
      "countryTitle" : "Германия",
      "point" : {
        "longitude" : 8.683403015136719,
        "latitude" : 50.11207580566406
      },
      "districtTitle" : "",
      "cityId" : 1436,
      "cityTitle" : "Франкфурт-на-Майне",
      "regionTitle" : "Гессен",
      "stations" : [
        {
          "countryTitle" : "Германия",
          "point" : {
            "longitude" : 8.683403015136719,
            "latitude" : 50.11207580566406
          },
          "districtTitle" : "",
          "cityId" : 1436,
          "cityTitle" : "город Франкфурт-на-Майне",
          "regionTitle" : "Гессен",
          "stationId" : 10070,
          "stationTitle" : "Hbf"
        },
        {
          "countryTitle" : "Германия",
          "point" : {
            "longitude" : 8.683403015136719,
            "latitude" : 50.11207580566406
          },
          "districtTitle" : "",
          "cityId" : 1436,
          "cityTitle" : "город Франкфурт-на-Майне",
          "regionTitle" : "Гессен",
          "stationId" : 10348,
          "stationTitle" : "Hbf.  Südseite  OB  14"
        },
        {
          "countryTitle" : "Германия",
          "point" : {
            "longitude" : 8.683403015136719,
            "latitude" : 50.11207580566406
          },
          "districtTitle" : "",
          "cityId" : 1436,
          "cityTitle" : "город Франкфурт-на-Майне",
          "regionTitle" : "Гессен",
          "stationId" : 10096,
          "stationTitle" : "Hbf. Südseite, Stuttgarter"
        },
        {
          "countryTitle" : "Германия",
          "point" : {
            "longitude" : 8.683403015136719,
            "latitude" : 50.11207580566406
          },
          "districtTitle" : "",
          "cityId" : 1436,
          "cityTitle" : "город Франкфурт-на-Майне",
          "regionTitle" : "Гессен",
          "stationId" : 9526,
          "stationTitle" : "Hbf. Südseite; Mannheimer Str"
        },
        {
          "countryTitle" : "Германия",
          "point" : {
            "longitude" : 8.683403015136719,
            "latitude" : 50.11207580566406
          },
          "districtTitle" : "",
          "cityId" : 1436,
          "cityTitle" : "город Франкфурт-на-Майне",
          "regionTitle" : "Гессен",
          "stationId" : 10072,
          "stationTitle" : "Hbf., OB, Bussteig 7-9"
        },
        {
          "countryTitle" : "Германия",
          "point" : {
            "longitude" : 8.683403015136719,
            "latitude" : 50.11207580566406
          },
          "districtTitle" : "",
          "cityId" : 1436,
          "cityTitle" : "город Франкфурт-на-Майне",
          "regionTitle" : "Гессен",
          "stationId" : 10256,
          "stationTitle" : "Parkplatz \"Conti Park International\", Hbf Central Ausgang"
        },
        {
          "countryTitle" : "Германия",
          "point" : {
            "longitude" : 8.683403015136719,
            "latitude" : 50.11207580566406
          },
          "districtTitle" : "",
          "cityId" : 1436,
          "cityTitle" : "город Франкфурт-на-Майне",
          "regionTitle" : "Гессен",
          "stationId" : 292,
          "stationTitle" : "Международный аэропорт, 1-й терминал, стоянка 361"
        },
        {
          "countryTitle" : "Германия",
          "point" : {
            "longitude" : 8.683403015136719,
            "latitude" : 50.11207580566406
          },
          "districtTitle" : "",
          "cityId" : 1436,
          "cityTitle" : "город Франкфурт-на-Майне",
          "regionTitle" : "Гессен",
          "stationId" : 8890,
          "stationTitle" : "Франкфурт-на-Майне аэропорт, Аэропорт"
        },
        {
          "countryTitle" : "Германия",
          "point" : {
            "longitude" : 8.683403015136719,
            "latitude" : 50.11207580566406
          },
          "districtTitle" : "",
          "cityId" : 1436,
          "cityTitle" : "город Франкфурт-на-Майне",
          "regionTitle" : "Гессен",
          "stationId" : 1196,
          "stationTitle" : "Центральный автовокзал"
        }
      ]
    },
    {
      "countryTitle" : "Германия",
      "point" : {
        "longitude" : 7.803530216217041,
        "latitude" : 51.67012786865234
      },
      "districtTitle" : "Реклингхаузен",
      "cityId" : 2460,
      "cityTitle" : "Хамм",
      "regionTitle" : "Северный Рейн-Вестфалия",
      "stations" : [
        {
          "countryTitle" : "Германия",
          "point" : {
            "longitude" : 7.803530216217041,
            "latitude" : 51.67012786865234
          },
          "districtTitle" : "Реклингхаузен",
          "cityId" : 2460,
          "cityTitle" : "город Хамм",
          "regionTitle" : "Северный Рейн-Вестфалия",
          "stationId" : 517,
          "stationTitle" : "Ж\/Д вокзал, Унион штр."
        }
      ]
    },
    {
      "countryTitle" : "Германия",
      "point" : {
        "longitude" : 9.171916007995605,
        "latitude" : 48.76766967773438
      },
      "districtTitle" : "",
      "cityId" : 2440,
      "cityTitle" : "Штутгарт",
      "regionTitle" : "Баден-Вюртемберг",
      "stations" : [
        {
          "countryTitle" : "Германия",
          "point" : {
            "longitude" : 9.171916007995605,
            "latitude" : 48.76766967773438
          },
          "districtTitle" : "",
          "cityId" : 2440,
          "cityTitle" : "город Штутгарт",
          "regionTitle" : "Баден-Вюртемберг",
          "stationId" : 10306,
          "stationTitle" : "Filderbahnstraße 70771 Leinfelden-Echterdingen"
        },
        {
          "countryTitle" : "Германия",
          "point" : {
            "longitude" : 9.171916007995605,
            "latitude" : 48.76766967773438
          },
          "districtTitle" : "",
          "cityId" : 2440,
          "cityTitle" : "город Штутгарт",
          "regionTitle" : "Баден-Вюртемберг",
          "stationId" : 431,
          "stationTitle" : "S-OBERTURHEIM, HAFEN strasse"
        },
        {
          "countryTitle" : "Германия",
          "point" : {
            "longitude" : 9.171916007995605,
            "latitude" : 48.76766967773438
          },
          "districtTitle" : "",
          "cityId" : 2440,
          "cityTitle" : "город Штутгарт",
          "regionTitle" : "Баден-Вюртемберг",
          "stationId" : 9710,
          "stationTitle" : "ZOB S-Obertürkheim-Hafenbahnstr"
        },
        {
          "countryTitle" : "Германия",
          "point" : {
            "longitude" : 9.171916007995605,
            "latitude" : 48.76766967773438
          },
          "districtTitle" : "",
          "cityId" : 2440,
          "cityTitle" : "город Штутгарт",
          "regionTitle" : "Баден-Вюртемберг",
          "stationId" : 9820,
          "stationTitle" : "ZOB S-Zuffenhausen, Burgunderstr."
        }
      ]
    },
    {
      "countryTitle" : "Германия",
      "point" : {
        "longitude" : 11.02316379547119,
        "latitude" : 50.97773742675781
      },
      "districtTitle" : "",
      "cityId" : 17992,
      "cityTitle" : "Эрфурт",
      "regionTitle" : "Тюрингия",
      "stations" : [
        {
          "countryTitle" : "Германия",
          "point" : {
            "longitude" : 11.02316379547119,
            "latitude" : 50.97773742675781
          },
          "districtTitle" : "",
          "cityId" : 17992,
          "cityTitle" : "город Эрфурт",
          "regionTitle" : "Тюрингия",
          "stationId" : 10328,
          "stationTitle" : "Fur den Fernverkehr in der Kurt-Schumacher Strasse"
        },
        {
          "countryTitle" : "Германия",
          "point" : {
            "longitude" : 11.02316379547119,
            "latitude" : 50.97773742675781
          },
          "districtTitle" : "",
          "cityId" : 17992,
          "cityTitle" : "город Эрфурт",
          "regionTitle" : "Тюрингия",
          "stationId" : 10016,
          "stationTitle" : "Zentrale Omnibusbahnhof (ZOB), Bussteig 4 (HBf)"
        },
        {
          "countryTitle" : "Германия",
          "point" : {
            "longitude" : 11.02316379547119,
            "latitude" : 50.97773742675781
          },
          "districtTitle" : "",
          "cityId" : 17992,
          "cityTitle" : "город Эрфурт",
          "regionTitle" : "Тюрингия",
          "stationId" : 9632,
          "stationTitle" : "ZOB, Willi-Brandt-Platz"
        },
        {
          "countryTitle" : "Германия",
          "point" : {
            "longitude" : 11.02316379547119,
            "latitude" : 50.97773742675781
          },
          "districtTitle" : "",
          "cityId" : 17992,
          "cityTitle" : "город Эрфурт",
          "regionTitle" : "Тюрингия",
          "stationId" : 10356,
          "stationTitle" : "Отель Intercity Willy-Brandt-Platz 11"
        }
      ]
    },
    {
      "countryTitle" : "Германия",
      "point" : {
        "longitude" : 7.010595798492432,
        "latitude" : 51.45180892944336
      },
      "districtTitle" : "Эссен",
      "cityId" : 1660,
      "cityTitle" : "Эссен",
      "regionTitle" : "Северный Рейн-Вестфалия",
      "stations" : [
        {
          "countryTitle" : "Германия",
          "point" : {
            "longitude" : 7.010595798492432,
            "latitude" : 51.45180892944336
          },
          "districtTitle" : "Эссен",
          "cityId" : 1660,
          "cityTitle" : "город Эссен",
          "regionTitle" : "Северный Рейн-Вестфалия",
          "stationId" : 507,
          "stationTitle" : "Главный вокзал, Южная сторона"
        },
        {
          "countryTitle" : "Германия",
          "point" : {
            "longitude" : 7.010595798492432,
            "latitude" : 51.45180892944336
          },
          "districtTitle" : "Эссен",
          "cityId" : 1660,
          "cityTitle" : "город Эссен",
          "regionTitle" : "Северный Рейн-Вестфалия",
          "stationId" : 298,
          "stationTitle" : "Центральный железнодорожный вокзал"
        }
      ]
    },
    {
      "countryTitle" : "Греция",
      "point" : {
        "longitude" : 23.73640823364258,
        "latitude" : 37.97614669799805
      },
      "districtTitle" : "Аттика",
      "cityId" : 13210,
      "cityTitle" : "Афины",
      "regionTitle" : "Аттика",
      "stations" : [
        {
          "countryTitle" : "Греция",
          "point" : {
            "longitude" : 23.73640823364258,
            "latitude" : 37.97614669799805
          },
          "districtTitle" : "Аттика",
          "cityId" : 13210,
          "cityTitle" : "город Афины",
          "regionTitle" : "Аттика",
          "stationId" : 10158,
          "stationTitle" : "ул.Lagoumitzi 65"
        },
        {
          "countryTitle" : "Греция",
          "point" : {
            "longitude" : 23.73640823364258,
            "latitude" : 37.97614669799805
          },
          "districtTitle" : "Аттика",
          "cityId" : 13210,
          "cityTitle" : "город Афины",
          "regionTitle" : "Аттика",
          "stationId" : 10318,
          "stationTitle" : "ул.Sidirodromon 5"
        }
      ]
    },
    {
      "countryTitle" : "Греция",
      "point" : {
        "longitude" : 22.43581962585449,
        "latitude" : 38.89994812011719
      },
      "districtTitle" : "Фтиотида",
      "cityId" : 18038,
      "cityTitle" : "Ламия",
      "regionTitle" : "Центральная Греция",
      "stations" : [
        {
          "countryTitle" : "Греция",
          "point" : {
            "longitude" : 22.43581962585449,
            "latitude" : 38.89994812011719
          },
          "districtTitle" : "Фтиотида",
          "cityId" : 18038,
          "cityTitle" : "город Ламия",
          "regionTitle" : "Центральная Греция",
          "stationId" : 10376,
          "stationTitle" : "Ресторан Restauracja “Pasiakos”"
        }
      ]
    },
    {
      "countryTitle" : "Греция",
      "point" : {
        "longitude" : 22.42130279541016,
        "latitude" : 39.63853454589844
      },
      "districtTitle" : "",
      "cityId" : 18036,
      "cityTitle" : "Лариса",
      "regionTitle" : "Фессалия",
      "stations" : [
        {
          "countryTitle" : "Греция",
          "point" : {
            "longitude" : 22.42130279541016,
            "latitude" : 39.63853454589844
          },
          "districtTitle" : "",
          "cityId" : 18036,
          "cityTitle" : "город Лариса",
          "regionTitle" : "Фессалия",
          "stationId" : 10164,
          "stationTitle" : "Nestou str."
        },
        {
          "countryTitle" : "Греция",
          "point" : {
            "longitude" : 22.42130279541016,
            "latitude" : 39.63853454589844
          },
          "districtTitle" : "",
          "cityId" : 18036,
          "cityTitle" : "город Лариса",
          "regionTitle" : "Фессалия",
          "stationId" : 10338,
          "stationTitle" : "Парковка ресторана \"Travel Stop\""
        }
      ]
    },
    {
      "countryTitle" : "Греция",
      "point" : {
        "longitude" : 22.93706130981445,
        "latitude" : 40.63954544067383
      },
      "districtTitle" : "",
      "cityId" : 18034,
      "cityTitle" : "Салоники",
      "regionTitle" : "Центральная Македония",
      "stations" : [
        {
          "countryTitle" : "Греция",
          "point" : {
            "longitude" : 22.93706130981445,
            "latitude" : 40.63954544067383
          },
          "districtTitle" : "",
          "cityId" : 18034,
          "cityTitle" : "город Салоники",
          "regionTitle" : "Центральная Македония",
          "stationId" : 10022,
          "stationTitle" : "Автобусная остановка напротив ж\/д вокзала"
        },
        {
          "countryTitle" : "Греция",
          "point" : {
            "longitude" : 22.93706130981445,
            "latitude" : 40.63954544067383
          },
          "districtTitle" : "",
          "cityId" : 18034,
          "cityTitle" : "город Салоники",
          "regionTitle" : "Центральная Македония",
          "stationId" : 10336,
          "stationTitle" : "Перед новым автовокзалом KTEL, возле заправки PETROLA"
        },
        {
          "countryTitle" : "Греция",
          "point" : {
            "longitude" : 22.93706130981445,
            "latitude" : 40.63954544067383
          },
          "districtTitle" : "",
          "cityId" : 18034,
          "cityTitle" : "город Салоники",
          "regionTitle" : "Центральная Македония",
          "stationId" : 10178,
          "stationTitle" : "ул. Monastiriou 28"
        }
      ]
    },
    {
      "countryTitle" : "Дания",
      "point" : {
        "longitude" : 12.56759262084961,
        "latitude" : 55.67567443847656
      },
      "districtTitle" : "",
      "cityId" : 2396,
      "cityTitle" : "Копенгаген",
      "regionTitle" : "Столичная область",
      "stations" : [
        {
          "countryTitle" : "Дания",
          "point" : {
            "longitude" : 12.56759262084961,
            "latitude" : 55.67567443847656
          },
          "districtTitle" : "",
          "cityId" : 2396,
          "cityTitle" : "город Копенгаген",
          "regionTitle" : "Столичная область",
          "stationId" : 452,
          "stationTitle" : "Hambrosgade"
        }
      ]
    },
    {
      "countryTitle" : "Испания",
      "point" : {
        "longitude" : 2.168740034103394,
        "latitude" : 41.38557815551758
      },
      "districtTitle" : "",
      "cityId" : 17998,
      "cityTitle" : "Барселона",
      "regionTitle" : "Каталония",
      "stations" : [
        {
          "countryTitle" : "Испания",
          "point" : {
            "longitude" : 2.168740034103394,
            "latitude" : 41.38557815551758
          },
          "districtTitle" : "",
          "cityId" : 17998,
          "cityTitle" : "город Барселона",
          "regionTitle" : "Каталония",
          "stationId" : 10002,
          "stationTitle" : "eastacion de autobuses Norte, Ali Bei 80"
        }
      ]
    },
    {
      "countryTitle" : "Испания",
      "point" : {
        "longitude" : -0.3768520057201385,
        "latitude" : 39.46899032592773
      },
      "districtTitle" : "",
      "cityId" : 2356,
      "cityTitle" : "Валенсия",
      "regionTitle" : "",
      "stations" : [
        {
          "countryTitle" : "Испания",
          "point" : {
            "longitude" : -0.3768520057201385,
            "latitude" : 39.46899032592773
          },
          "districtTitle" : "",
          "cityId" : 2356,
          "cityTitle" : "город Валенсия",
          "regionTitle" : "",
          "stationId" : 9786,
          "stationTitle" : "Автовокзал ул. Avinguda Mendez Pidal 13"
        }
      ]
    },
    {
      "countryTitle" : "Испания",
      "point" : {
        "longitude" : -4.732135772705078,
        "latitude" : 41.6541862487793
      },
      "districtTitle" : "",
      "cityId" : 17940,
      "cityTitle" : "Вальядолид",
      "regionTitle" : "Кастилия и Леон",
      "stations" : [
        {
          "countryTitle" : "Испания",
          "point" : {
            "longitude" : -4.732135772705078,
            "latitude" : 41.6541862487793
          },
          "districtTitle" : "",
          "cityId" : 17940,
          "cityTitle" : "город Вальядолид",
          "regionTitle" : "Кастилия и Леон",
          "stationId" : 9986,
          "stationTitle" : "Центральный автовокзал"
        }
      ]
    },
    {
      "countryTitle" : "Испания",
      "point" : {
        "longitude" : -3.705765962600708,
        "latitude" : 40.4202766418457
      },
      "districtTitle" : "",
      "cityId" : 2384,
      "cityTitle" : "Мадрид",
      "regionTitle" : "",
      "stations" : [
        {
          "countryTitle" : "Испания",
          "point" : {
            "longitude" : -3.705765962600708,
            "latitude" : 40.4202766418457
          },
          "districtTitle" : "",
          "cityId" : 2384,
          "cityTitle" : "город Мадрид",
          "regionTitle" : "",
          "stationId" : 9858,
          "stationTitle" : "Автовокзал Avenida de America"
        }
      ]
    },
    {
      "countryTitle" : "Испания",
      "point" : {
        "longitude" : -4.420151233673096,
        "latitude" : 36.71831893920898
      },
      "districtTitle" : "",
      "cityId" : 18004,
      "cityTitle" : "Малага",
      "regionTitle" : "Андалусия",
      "stations" : [
        {
          "countryTitle" : "Испания",
          "point" : {
            "longitude" : -4.420151233673096,
            "latitude" : 36.71831893920898
          },
          "districtTitle" : "",
          "cityId" : 18004,
          "cityTitle" : "город Малага",
          "regionTitle" : "Андалусия",
          "stationId" : 10006,
          "stationTitle" : "Автовокзал"
        }
      ]
    },
    {
      "countryTitle" : "Испания",
      "point" : {
        "longitude" : -5.66384220123291,
        "latitude" : 40.96425628662109
      },
      "districtTitle" : "Саламанка",
      "cityId" : 2500,
      "cityTitle" : "Саламанка",
      "regionTitle" : "Кастилия и Леон",
      "stations" : [
        {
          "countryTitle" : "Испания",
          "point" : {
            "longitude" : -5.66384220123291,
            "latitude" : 40.96425628662109
          },
          "districtTitle" : "Саламанка",
          "cityId" : 2500,
          "cityTitle" : "город Саламанка",
          "regionTitle" : "Кастилия и Леон",
          "stationId" : 539,
          "stationTitle" : "Auto Transportes - Av\/ da Liberdade"
        }
      ]
    },
    {
      "countryTitle" : "Испания",
      "point" : {
        "longitude" : -0.881318986415863,
        "latitude" : 41.65172958374023
      },
      "districtTitle" : "",
      "cityId" : 18002,
      "cityTitle" : "Сарагоса",
      "regionTitle" : "Арагон",
      "stations" : [
        {
          "countryTitle" : "Испания",
          "point" : {
            "longitude" : -0.881318986415863,
            "latitude" : 41.65172958374023
          },
          "districtTitle" : "",
          "cityId" : 18002,
          "cityTitle" : "город Сарагоса",
          "regionTitle" : "Арагон",
          "stationId" : 10004,
          "stationTitle" : "Автовокзал, Avenida de Navarra 80"
        }
      ]
    },
    {
      "countryTitle" : "Испания",
      "point" : {
        "longitude" : -6.001958847045898,
        "latitude" : 37.38790512084961
      },
      "districtTitle" : "",
      "cityId" : 18006,
      "cityTitle" : "Севилья",
      "regionTitle" : "Андалусия",
      "stations" : [
        {
          "countryTitle" : "Испания",
          "point" : {
            "longitude" : -6.001958847045898,
            "latitude" : 37.38790512084961
          },
          "districtTitle" : "",
          "cityId" : 18006,
          "cityTitle" : "город Севилья",
          "regionTitle" : "Андалусия",
          "stationId" : 10008,
          "stationTitle" : "Автовокзал Plaza de Armas"
        }
      ]
    },
    {
      "countryTitle" : "Италия",
      "point" : {
        "longitude" : 13.50879287719727,
        "latitude" : 43.61832809448242
      },
      "districtTitle" : "",
      "cityId" : 17976,
      "cityTitle" : "Анкона",
      "regionTitle" : "Марке",
      "stations" : [
        {
          "countryTitle" : "Италия",
          "point" : {
            "longitude" : 13.50879287719727,
            "latitude" : 43.61832809448242
          },